[
  {
    "id": "ramstein-ab",
    "name": "Ramstein Air Base",
    "country": "Germany",
    "lat": 49.4369,
    "lon": 7.6003,
    "type": "air",
    "alliance": "NATO"
  },
  {
    "id": "diego-garcia",
    "name": "Naval Support Facility Diego Garcia",
    "country": "British Indian Ocean Territory",
    "lat": -7.3167,
    "lon": 72.4111,
    "type": "naval",
    "alliance": "NATO"
  },
  {
    "id": "guam-andersen",
    "name": "Andersen Air Force Base",
    "country": "Guam",
    "lat": 13.5840,
    "lon": 144.9306,
    "type": "air",
    "alliance": "NATO"
  },
  {
    "id": "incirlik-ab",
    "name": "Incirlik Air Base",
    "country": "Turkey",
    "lat": 37.0021,
    "lon": 35.4258,
    "type": "air",
    "alliance": "NATO"
  },
  {
    "id": "tartus-naval",
    "name": "Tartus Naval Base",
    "country": "Syria",
    "lat": 34.8833,
    "lon": 35.8833,
    "type": "naval",
    "alliance": "Russia"
  },
  {
    "id": "norfolk-naval",
    "name": "Naval Station Norfolk",
    "country": "United States",
    "lat": 36.9467,
    "lon": -76.3297,
    "type": "naval",
    "alliance": "NATO"
  },
  {
    "id": "camp-humphreys",
    "name": "Camp Humphreys",
    "country": "South Korea",
    "lat": 36.9686,
    "lon": 127.0306,
    "type": "army",
    "alliance": "NATO"
  },
  {
    "id": "yokota-ab",
    "name": "Yokota Air Base",
    "country": "Japan",
    "lat": 35.7485,
    "lon": 139.3485,
    "type": "air",
    "alliance": "NATO"
  },
  {
    "id": "kadena-ab",
    "name": "Kadena Air Base",
    "country": "Japan",
    "lat": 26.3517,
    "lon": 127.7686,
    "type": "air",
    "alliance": "NATO"
  },
  {
    "id": "yokosuka-naval",
    "name": "Naval Base Yokosuka",
    "country": "Japan",
    "lat": 35.2933,
    "lon": 139.6661,
    "type": "naval",
    "alliance": "NATO"
  },
  {
    "id": "al-udeid",
    "name": "Al Udeid Air Base",
    "country": "Qatar",
    "lat": 25.1173,
    "lon": 51.3150,
    "type": "air",
    "alliance": "NATO"
  },
  {
    "id": "djibouti-lemmonier",
    "name": "Camp Lemonnier",
    "country": "Djibouti",
    "lat": 11.5450,
    "lon": 43.1572,
    "type": "joint",
    "alliance": "NATO"
  },
  {
    "id": "thule-ab",
    "name": "Thule Air Base",
    "country": "Greenland",
    "lat": 76.5311,
    "lon": -68.7032,
    "type": "air",
    "alliance": "NATO"
  },
  {
    "id": "rota-naval",
    "name": "Naval Station Rota",
    "country": "Spain",
    "lat": 36.6452,
    "lon": -6.3493,
    "type": "naval",
    "alliance": "NATO"
  },
  {
    "id": "sigonella-nas",
    "name": "Naval Air Station Sigonella",
    "country": "Italy",
    "lat": 37.4017,
    "lon": 14.9222,
    "type": "air",
    "alliance": "NATO"
  },
  {
    "id": "aviano-ab",
    "name": "Aviano Air Base",
    "country": "Italy",
    "lat": 46.0319,
    "lon": 12.5965,
    "type": "air",
    "alliance": "NATO"
  },
  {
    "id": "lakenheath-raf",
    "name": "RAF Lakenheath",
    "country": "United Kingdom",
    "lat": 52.4093,
    "lon": 0.5610,
    "type": "air",
    "alliance": "NATO"
  },
  {
    "id": "mildenhall-raf",
    "name": "RAF Mildenhall",
    "country": "United Kingdom",
    "lat": 52.3617,
    "lon": 0.4864,
    "type": "air",
    "alliance": "NATO"
  },
  {
    "id": "croughton-raf",
    "name": "RAF Croughton",
    "country": "United Kingdom",
    "lat": 51.9908,
    "lon": -1.1936,
    "type": "air",
    "alliance": "NATO"
  },
  {
    "id": "geilenkirchen-nato",
    "name": "NATO Air Base Geilenkirchen",
    "country": "Germany",
    "lat": 50.9608,
    "lon": 6.0425,
    "type": "air",
    "alliance": "NATO"
  },
  {
    "id": "spangdahlem-ab",
    "name": "Spangdahlem Air Base",
    "country": "Germany",
    "lat": 49.9727,
    "lon": 6.6925,
    "type": "air",
    "alliance": "NATO"
  },
  {
    "id": "kaliningrad-baltic",
    "name": "Kaliningrad Naval Base",
    "country": "Russia",
    "lat": 54.7065,
    "lon": 20.5110,
    "type": "naval",
    "alliance": "Russia"
  },
  {
    "id": "severomorsk",
    "name": "Severomorsk Naval Base",
    "country": "Russia",
    "lat": 69.0667,
    "lon": 33.4167,
    "type": "naval",
    "alliance": "Russia"
  },
  {
    "id": "vladivostok-naval",
    "name": "Vladivostok Naval Base",
    "country": "Russia",
    "lat": 43.1150,
    "lon": 131.8869,
    "type": "naval",
    "alliance": "Russia"
  },
  {
    "id": "hmeimim-ab",
    "name": "Hmeimim Air Base",
    "country": "Syria",
    "lat": 35.4011,
    "lon": 35.9486,
    "type": "air",
    "alliance": "Russia"
  },
  {
    "id": "gyumri-russia",
    "name": "102nd Military Base",
    "country": "Armenia",
    "lat": 40.7742,
    "lon": 43.8486,
    "type": "army",
    "alliance": "Russia"
  },
  {
    "id": "djibouti-china",
    "name": "Chinese Support Base Djibouti",
    "country": "Djibouti",
    "lat": 11.6333,
    "lon": 43.0833,
    "type": "naval",
    "alliance": "China"
  },
  {
    "id": "ream-cambodia",
    "name": "Ream Naval Base",
    "country": "Cambodia",
    "lat": 10.4833,
    "lon": 103.6500,
    "type": "naval",
    "alliance": "China"
  },
  {
    "id": "hainan-yulin",
    "name": "Yulin Naval Base",
    "country": "China",
    "lat": 18.2333,
    "lon": 109.5500,
    "type": "naval",
    "alliance": "China"
  },
  {
    "id": "ningbo-naval",
    "name": "Ningbo Naval Base",
    "country": "China",
    "lat": 29.9500,
    "lon": 121.6333,
    "type": "naval",
    "alliance": "China"
  },
  {
    "id": "qingdao-naval",
    "name": "Qingdao Naval Base",
    "country": "China",
    "lat": 36.0667,
    "lon": 120.3333,
    "type": "naval",
    "alliance": "China"
  },
  {
    "id": "zhanjiang-naval",
    "name": "Zhanjiang Naval Base",
    "country": "China",
    "lat": 21.2000,
    "lon": 110.4000,
    "type": "naval",
    "alliance": "China"
  },
  {
    "id": "lhasa-ab",
    "name": "Lhasa Gonggar Airport Military Base",
    "country": "China",
    "lat": 29.2978,
    "lon": 90.9119,
    "type": "air",
    "alliance": "China"
  },
  {
    "id": "kashgar-ab",
    "name": "Kashgar Air Base",
    "country": "China",
    "lat": 39.5428,
    "lon": 76.0200,
    "type": "air",
    "alliance": "China"
  },
  {
    "id": "pearl-harbor",
    "name": "Joint Base Pearl Harbor-Hickam",
    "country": "United States",
    "lat": 21.3500,
    "lon": -157.9500,
    "type": "joint",
    "alliance": "NATO"
  },
  {
    "id": "fort-bragg",
    "name": "Fort Liberty (formerly Bragg)",
    "country": "United States",
    "lat": 35.1392,
    "lon": -79.0061,
    "type": "army",
    "alliance": "NATO"
  },
  {
    "id": "camp-pendleton",
    "name": "Marine Corps Base Camp Pendleton",
    "country": "United States",
    "lat": 33.3247,
    "lon": -117.3303,
    "type": "army",
    "alliance": "NATO"
  },
  {
    "id": "nellis-afb",
    "name": "Nellis Air Force Base",
    "country": "United States",
    "lat": 36.2361,
    "lon": -115.0344,
    "type": "air",
    "alliance": "NATO"
  },
  {
    "id": "edwards-afb",
    "name": "Edwards Air Force Base",
    "country": "United States",
    "lat": 34.9054,
    "lon": -117.8839,
    "type": "air",
    "alliance": "NATO"
  },
  {
    "id": "fort-hood",
    "name": "Fort Cavazos (formerly Hood)",
    "country": "United States",
    "lat": 31.1350,
    "lon": -97.7819,
    "type": "army",
    "alliance": "NATO"
  },
  {
    "id": "eglin-afb",
    "name": "Eglin Air Force Base",
    "country": "United States",
    "lat": 30.4833,
    "lon": -86.5250,
    "type": "air",
    "alliance": "NATO"
  },
  {
    "id": "san-diego-naval",
    "name": "Naval Base San Diego",
    "country": "United States",
    "lat": 32.6761,
    "lon": -117.1211,
    "type": "naval",
    "alliance": "NATO"
  },
  {
    "id": "bagram-ab",
    "name": "Bagram Airfield",
    "country": "Afghanistan",
    "lat": 34.9461,
    "lon": 69.2650,
    "type": "air",
    "alliance": "Other"
  },
  {
    "id": "ali-al-salem",
    "name": "Ali Al Salem Air Base",
    "country": "Kuwait",
    "lat": 29.3472,
    "lon": 47.5208,
    "type": "air",
    "alliance": "NATO"
  },
  {
    "id": "camp-arifjan",
    "name": "Camp Arifjan",
    "country": "Kuwait",
    "lat": 29.0833,
    "lon": 48.1167,
    "type": "army",
    "alliance": "NATO"
  },
  {
    "id": "bahrain-nsa",
    "name": "NSA Bahrain",
    "country": "Bahrain",
    "lat": 26.2028,
    "lon": 50.6111,
    "type": "naval",
    "alliance": "NATO"
  },
  {
    "id": "al-dhafra",
    "name": "Al Dhafra Air Base",
    "country": "United Arab Emirates",
    "lat": 24.2483,
    "lon": 54.5475,
    "type": "air",
    "alliance": "NATO"
  },
  {
    "id": "souda-bay",
    "name": "Naval Support Activity Souda Bay",
    "country": "Greece",
    "lat": 35.4908,
    "lon": 24.1175,
    "type": "naval",
    "alliance": "NATO"
  },
  {
    "id": "garmisch",
    "name": "Marshall Center Garmisch",
    "country": "Germany",
    "lat": 47.4969,
    "lon": 11.0961,
    "type": "joint",
    "alliance": "NATO"
  },
  {
    "id": "patch-barracks",
    "name": "Patch Barracks",
    "country": "Germany",
    "lat": 48.7508,
    "lon": 9.1111,
    "type": "army",
    "alliance": "NATO"
  },
  {
    "id": "grafenwoehr",
    "name": "Grafenwoehr Training Area",
    "country": "Germany",
    "lat": 49.6972,
    "lon": 11.9422,
    "type": "army",
    "alliance": "NATO"
  },
  {
    "id": "hohenfels",
    "name": "Joint Multinational Readiness Center",
    "country": "Germany",
    "lat": 49.2147,
    "lon": 11.8361,
    "type": "army",
    "alliance": "NATO"
  },
  {
    "id": "osan-ab",
    "name": "Osan Air Base",
    "country": "South Korea",
    "lat": 37.0906,
    "lon": 127.0297,
    "type": "air",
    "alliance": "NATO"
  },
  {
    "id": "kunsan-ab",
    "name": "Kunsan Air Base",
    "country": "South Korea",
    "lat": 35.9036,
    "lon": 126.6158,
    "type": "air",
    "alliance": "NATO"
  },
  {
    "id": "camp-casey",
    "name": "Camp Casey",
    "country": "South Korea",
    "lat": 37.7500,
    "lon": 126.9833,
    "type": "army",
    "alliance": "NATO"
  },
  {
    "id": "misawa-ab",
    "name": "Misawa Air Base",
    "country": "Japan",
    "lat": 40.7032,
    "lon": 141.3686,
    "type": "air",
    "alliance": "NATO"
  },
  {
    "id": "camp-fuji",
    "name": "Camp Fuji",
    "country": "Japan",
    "lat": 35.3333,
    "lon": 138.8500,
    "type": "army",
    "alliance": "NATO"
  },
  {
    "id": "iwakuni-mcas",
    "name": "Marine Corps Air Station Iwakuni",
    "country": "Japan",
    "lat": 34.1439,
    "lon": 132.2356,
    "type": "air",
    "alliance": "NATO"
  },
  {
    "id": "sasebo-naval",
    "name": "Naval Base Sasebo",
    "country": "Japan",
    "lat": 33.1597,
    "lon": 129.7253,
    "type": "naval",
    "alliance": "NATO"
  },
  {
    "id": "camp-zama",
    "name": "Camp Zama",
    "country": "Japan",
    "lat": 35.5167,
    "lon": 139.3833,
    "type": "army",
    "alliance": "NATO"
  },
  {
    "id": "white-sands",
    "name": "White Sands Missile Range",
    "country": "United States",
    "lat": 32.9403,
    "lon": -106.4239,
    "type": "army",
    "alliance": "NATO"
  },
  {
    "id": "vandenberg-sfb",
    "name": "Vandenberg Space Force Base",
    "country": "United States",
    "lat": 34.7553,
    "lon": -120.5711,
    "type": "air",
    "alliance": "NATO"
  },
  {
    "id": "peterson-sfb",
    "name": "Peterson Space Force Base",
    "country": "United States",
    "lat": 38.8125,
    "lon": -104.7006,
    "type": "air",
    "alliance": "NATO"
  },
  {
    "id": "kirtland-afb",
    "name": "Kirtland Air Force Base",
    "country": "United States",
    "lat": 35.0403,
    "lon": -106.6089,
    "type": "air",
    "alliance": "NATO"
  },
  {
    "id": "wright-patterson",
    "name": "Wright-Patterson Air Force Base",
    "country": "United States",
    "lat": 39.8261,
    "lon": -84.0483,
    "type": "air",
    "alliance": "NATO"
  },
  {
    "id": "kings-bay",
    "name": "Naval Submarine Base Kings Bay",
    "country": "United States",
    "lat": 30.7978,
    "lon": -81.5528,
    "type": "naval",
    "alliance": "NATO"
  },
  {
    "id": "bangor-naval",
    "name": "Naval Base Kitsap-Bangor",
    "country": "United States",
    "lat": 47.7208,
    "lon": -122.7147,
    "type": "naval",
    "alliance": "NATO"
  },
  {
    "id": "mayport-naval",
    "name": "Naval Station Mayport",
    "country": "United States",
    "lat": 30.3917,
    "lon": -81.4247,
    "type": "naval",
    "alliance": "NATO"
  },
  {
    "id": "charleston-naval",
    "name": "Naval Weapons Station Charleston",
    "country": "United States",
    "lat": 32.9956,
    "lon": -79.9700,
    "type": "naval",
    "alliance": "NATO"
  },
  {
    "id": "groton-naval",
    "name": "Naval Submarine Base New London",
    "country": "United States",
    "lat": 41.3856,
    "lon": -72.0800,
    "type": "naval",
    "alliance": "NATO"
  },
  {
    "id": "quantico-mcb",
    "name": "Marine Corps Base Quantico",
    "country": "United States",
    "lat": 38.5222,
    "lon": -77.3089,
    "type": "army",
    "alliance": "NATO"
  },
  {
    "id": "lejeune-mcb",
    "name": "Marine Corps Base Camp Lejeune",
    "country": "United States",
    "lat": 34.7011,
    "lon": -77.3436,
    "type": "army",
    "alliance": "NATO"
  },
  {
    "id": "parris-island",
    "name": "Marine Corps Recruit Depot Parris Island",
    "country": "United States",
    "lat": 32.3500,
    "lon": -80.6833,
    "type": "army",
    "alliance": "NATO"
  },
  {
    "id": "yuma-mcas",
    "name": "Marine Corps Air Station Yuma",
    "country": "United States",
    "lat": 32.6294,
    "lon": -114.6064,
    "type": "air",
    "alliance": "NATO"
  },
  {
    "id": "twentynine-palms",
    "name": "Marine Corps Air Ground Combat Center",
    "country": "United States",
    "lat": 34.3011,
    "lon": -116.1625,
    "type": "army",
    "alliance": "NATO"
  },
  {
    "id": "miramar-mcas",
    "name": "Marine Corps Air Station Miramar",
    "country": "United States",
    "lat": 32.8683,
    "lon": -117.1431,
    "type": "air",
    "alliance": "NATO"
  },
  {
    "id": "fort-campbell",
    "name": "Fort Campbell",
    "country": "United States",
    "lat": 36.6650,
    "lon": -87.4583,
    "type": "army",
    "alliance": "NATO"
  },
  {
    "id": "fort-benning",
    "name": "Fort Moore (formerly Benning)",
    "country": "United States",
    "lat": 32.3639,
    "lon": -84.9506,
    "type": "army",
    "alliance": "NATO"
  },
  {
    "id": "fort-stewart",
    "name": "Fort Stewart",
    "country": "United States",
    "lat": 31.8697,
    "lon": -81.6108,
    "type": "army",
    "alliance": "NATO"
  },
  {
    "id": "fort-bliss",
    "name": "Fort Bliss",
    "country": "United States",
    "lat": 31.8142,
    "lon": -106.4208,
    "type": "army",
    "alliance": "NATO"
  },
  {
    "id": "fort-carson",
    "name": "Fort Carson",
    "country": "United States",
    "lat": 38.7356,
    "lon": -104.7917,
    "type": "army",
    "alliance": "NATO"
  },
  {
    "id": "fort-drum",
    "name": "Fort Drum",
    "country": "United States",
    "lat": 44.0556,
    "lon": -75.7664,
    "type": "army",
    "alliance": "NATO"
  },
  {
    "id": "fort-polk",
    "name": "Fort Johnson (formerly Polk)",
    "country": "United States",
    "lat": 31.0536,
    "lon": -93.2050,
    "type": "army",
    "alliance": "NATO"
  },
  {
    "id": "fort-riley",
    "name": "Fort Riley",
    "country": "United States",
    "lat": 39.0417,
    "lon": -96.7992,
    "type": "army",
    "alliance": "NATO"
  },
  {
    "id": "fort-sill",
    "name": "Fort Sill",
    "country": "United States",
    "lat": 34.6500,
    "lon": -98.4000,
    "type": "army",
    "alliance": "NATO"
  },
  {
    "id": "fort-wainwright",
    "name": "Fort Wainwright",
    "country": "United States",
    "lat": 64.8372,
    "lon": -147.6406,
    "type": "army",
    "alliance": "NATO"
  },
  {
    "id": "fort-richardson",
    "name": "Joint Base Elmendorf-Richardson",
    "country": "United States",
    "lat": 61.2506,
    "lon": -149.8072,
    "type": "joint",
    "alliance": "NATO"
  },
  {
    "id": "eielson-afb",
    "name": "Eielson Air Force Base",
    "country": "United States",
    "lat": 64.6658,
    "lon": -147.1019,
    "type": "air",
    "alliance": "NATO"
  },
  {
    "id": "mcchord-jb",
    "name": "Joint Base Lewis-McChord",
    "country": "United States",
    "lat": 47.1378,
    "lon": -122.4764,
    "type": "joint",
    "alliance": "NATO"
  },
  {
    "id": "travis-afb",
    "name": "Travis Air Force Base",
    "country": "United States",
    "lat": 38.2628,
    "lon": -121.9272,
    "type": "air",
    "alliance": "NATO"
  },
  {
    "id": "beale-afb",
    "name": "Beale Air Force Base",
    "country": "United States",
    "lat": 39.1361,
    "lon": -121.4367,
    "type": "air",
    "alliance": "NATO"
  },
  {
    "id": "march-arb",
    "name": "March Air Reserve Base",
    "country": "United States",
    "lat": 33.8808,
    "lon": -117.2594,
    "type": "air",
    "alliance": "NATO"
  },
  {
    "id": "luke-afb",
    "name": "Luke Air Force Base",
    "country": "United States",
    "lat": 33.5350,
    "lon": -112.3833,
    "type": "air",
    "alliance": "NATO"
  },
  {
    "id": "davis-monthan",
    "name": "Davis-Monthan Air Force Base",
    "country": "United States",
    "lat": 32.1656,
    "lon": -110.8833,
    "type": "air",
    "alliance": "NATO"
  },
  {
    "id": "holloman-afb",
    "name": "Holloman Air Force Base",
    "country": "United States",
    "lat": 32.8525,
    "lon": -106.1067,
    "type": "air",
    "alliance": "NATO"
  },
  {
    "id": "cannon-afb",
    "name": "Cannon Air Force Base",
    "country": "United States",
    "lat": 34.3828,
    "lon": -103.3222,
    "type": "air",
    "alliance": "NATO"
  },
  {
    "id": "dyess-afb",
    "name": "Dyess Air Force Base",
    "country": "United States",
    "lat": 32.4208,
    "lon": -99.8544,
    "type": "air",
    "alliance": "NATO"
  },
  {
    "id": "laughlin-afb",
    "name": "Laughlin Air Force Base",
    "country": "United States",
    "lat": 29.3594,
    "lon": -100.7794,
    "type": "air",
    "alliance": "NATO"
  },
  {
    "id": "sheppard-afb",
    "name": "Sheppard Air Force Base",
    "country": "United States",
    "lat": 33.9889,
    "lon": -98.4919,
    "type": "air",
    "alliance": "NATO"
  },
  {
    "id": "barksdale-afb",
    "name": "Barksdale Air Force Base",
    "country": "United States",
    "lat": 32.5019,
    "lon": -93.6628,
    "type": "air",
    "alliance": "NATO"
  },
  {
    "id": "tinker-afb",
    "name": "Tinker Air Force Base",
    "country": "United States",
    "lat": 35.4147,
    "lon": -97.3867,
    "type": "air",
    "alliance": "NATO"
  },
  {
    "id": "altus-afb",
    "name": "Altus Air Force Base",
    "country": "United States",
    "lat": 34.6667,
    "lon": -99.2667,
    "type": "air",
    "alliance": "NATO"
  },
  {
    "id": "vance-afb",
    "name": "Vance Air Force Base",
    "country": "United States",
    "lat": 36.3411,
    "lon": -97.9169,
    "type": "air",
    "alliance": "NATO"
  },
  {
    "id": "whiteman-afb",
    "name": "Whiteman Air Force Base",
    "country": "United States",
    "lat": 38.7303,
    "lon": -93.5479,
    "type": "air",
    "alliance": "NATO"
  },
  {
    "id": "offutt-afb",
    "name": "Offutt Air Force Base",
    "country": "United States",
    "lat": 41.1183,
    "lon": -95.9147,
    "type": "air",
    "alliance": "NATO"
  },
  {
    "id": "ellsworth-afb",
    "name": "Ellsworth Air Force Base",
    "country": "United States",
    "lat": 44.1450,
    "lon": -103.1036,
    "type": "air",
    "alliance": "NATO"
  },
  {
    "id": "minot-afb",
    "name": "Minot Air Force Base",
    "country": "United States",
    "lat": 48.4156,
    "lon": -101.3578,
    "type": "air",
    "alliance": "NATO"
  },
  {
    "id": "grand-forks-afb",
    "name": "Grand Forks Air Force Base",
    "country": "United States",
    "lat": 47.9611,
    "lon": -97.4011,
    "type": "air",
    "alliance": "NATO"
  },
  {
    "id": "macdill-afb",
    "name": "MacDill Air Force Base",
    "country": "United States",
    "lat": 27.8492,
    "lon": -82.5203,
    "type": "air",
    "alliance": "NATO"
  },
  {
    "id": "tyndall-afb",
    "name": "Tyndall Air Force Base",
    "country": "United States",
    "lat": 30.0697,
    "lon": -85.5753,
    "type": "air",
    "alliance": "NATO"
  },
  {
    "id": "hurlburt-field",
    "name": "Hurlburt Field",
    "country": "United States",
    "lat": 30.4278,
    "lon": -86.6892,
    "type": "air",
    "alliance": "NATO"
  },
  {
    "id": "maxwell-afb",
    "name": "Maxwell Air Force Base",
    "country": "United States",
    "lat": 32.3831,
    "lon": -86.3656,
    "type": "air",
    "alliance": "NATO"
  },
  {
    "id": "moody-afb",
    "name": "Moody Air Force Base",
    "country": "United States",
    "lat": 30.9678,
    "lon": -83.1939,
    "type": "air",
    "alliance": "NATO"
  },
  {
    "id": "robins-afb",
    "name": "Robins Air Force Base",
    "country": "United States",
    "lat": 32.6401,
    "lon": -83.5919,
    "type": "air",
    "alliance": "NATO"
  },
  {
    "id": "shaw-afb",
    "name": "Shaw Air Force Base",
    "country": "United States",
    "lat": 33.9728,
    "lon": -80.4708,
    "type": "air",
    "alliance": "NATO"
  },
  {
    "id": "charleston-afb",
    "name": "Joint Base Charleston",
    "country": "United States",
    "lat": 32.8986,
    "lon": -80.0406,
    "type": "joint",
    "alliance": "NATO"
  },
  {
    "id": "seymour-johnson",
    "name": "Seymour Johnson Air Force Base",
    "country": "United States",
    "lat": 35.3394,
    "lon": -77.9606,
    "type": "air",
    "alliance": "NATO"
  },
  {
    "id": "pope-field",
    "name": "Pope Army Airfield",
    "country": "United States",
    "lat": 35.1708,
    "lon": -79.0144,
    "type": "army",
    "alliance": "NATO"
  },
  {
    "id": "langley-afb",
    "name": "Joint Base Langley-Eustis",
    "country": "United States",
    "lat": 37.0828,
    "lon": -76.3606,
    "type": "joint",
    "alliance": "NATO"
  },
  {
    "id": "dover-afb",
    "name": "Dover Air Force Base",
    "country": "United States",
    "lat": 39.1294,
    "lon": -75.4661,
    "type": "air",
    "alliance": "NATO"
  },
  {
    "id": "andrews-jb",
    "name": "Joint Base Andrews",
    "country": "United States",
    "lat": 38.8108,
    "lon": -76.8669,
    "type": "joint",
    "alliance": "NATO"
  },
  {
    "id": "mcguire-jb",
    "name": "Joint Base McGuire-Dix-Lakehurst",
    "country": "United States",
    "lat": 40.0156,
    "lon": -74.5917,
    "type": "joint",
    "alliance": "NATO"
  },
  {
    "id": "hanscom-afb",
    "name": "Hanscom Air Force Base",
    "country": "United States",
    "lat": 42.4631,
    "lon": -71.2889,
    "type": "air",
    "alliance": "NATO"
  },
  {
    "id": "westover-arb",
    "name": "Westover Air Reserve Base",
    "country": "United States",
    "lat": 42.1958,
    "lon": -72.5347,
    "type": "air",
    "alliance": "NATO"
  },
  {
    "id": "scott-afb",
    "name": "Scott Air Force Base",
    "country": "United States",
    "lat": 38.5422,
    "lon": -89.8519,
    "type": "air",
    "alliance": "NATO"
  },
  {
    "id": "mcconnell-afb",
    "name": "McConnell Air Force Base",
    "country": "United States",
    "lat": 37.6219,
    "lon": -97.2681,
    "type": "air",
    "alliance": "NATO"
  },
  {
    "id": "buckley-sfb",
    "name": "Buckley Space Force Base",
    "country": "United States",
    "lat": 39.7017,
    "lon": -104.7519,
    "type": "air",
    "alliance": "NATO"
  },
  {
    "id": "hill-afb",
    "name": "Hill Air Force Base",
    "country": "United States",
    "lat": 41.1239,
    "lon": -111.9728,
    "type": "air",
    "alliance": "NATO"
  },
  {
    "id": "mountain-home",
    "name": "Mountain Home Air Force Base",
    "country": "United States",
    "lat": 43.0439,
    "lon": -115.8725,
    "type": "air",
    "alliance": "NATO"
  },
  {
    "id": "fairchild-afb",
    "name": "Fairchild Air Force Base",
    "country": "United States",
    "lat": 47.6153,
    "lon": -117.6558,
    "type": "air",
    "alliance": "NATO"
  },
  {
    "id": "malmstrom-afb",
    "name": "Malmstrom Air Force Base",
    "country": "United States",
    "lat": 47.5064,
    "lon": -111.1828,
    "type": "air",
    "alliance": "NATO"
  },
  {
    "id": "fe-warren-afb",
    "name": "F.E. Warren Air Force Base",
    "country": "United States",
    "lat": 41.1567,
    "lon": -104.8667,
    "type": "air",
    "alliance": "NATO"
  },
  {
    "id": "schriever-sfb",
    "name": "Schriever Space Force Base",
    "country": "United States",
    "lat": 38.8017,
    "lon": -104.5269,
    "type": "air",
    "alliance": "NATO"
  },
  {
    "id": "cheyenne-mountain",
    "name": "Cheyenne Mountain Complex",
    "country": "United States",
    "lat": 38.7453,
    "lon": -104.8208,
    "type": "air",
    "alliance": "NATO"
  },
  {
    "id": "montreal-nato",
    "name": "CFB Bagotville",
    "country": "Canada",
    "lat": 48.3306,
    "lon": -70.9964,
    "type": "air",
    "alliance": "NATO"
  },
  {
    "id": "cold-lake",
    "name": "CFB Cold Lake",
    "country": "Canada",
    "lat": 54.4050,
    "lon": -110.2792,
    "type": "air",
    "alliance": "NATO"
  },
  {
    "id": "comox-cfb",
    "name": "CFB Comox",
    "country": "Canada",
    "lat": 49.7108,
    "lon": -124.8867,
    "type": "air",
    "alliance": "NATO"
  },
  {
    "id": "esquimalt-naval",
    "name": "CFB Esquimalt",
    "country": "Canada",
    "lat": 48.4325,
    "lon": -123.4397,
    "type": "naval",
    "alliance": "NATO"
  },
  {
    "id": "gagetown-cfb",
    "name": "CFB Gagetown",
    "country": "Canada",
    "lat": 45.7978,
    "lon": -66.3900,
    "type": "army",
    "alliance": "NATO"
  },
  {
    "id": "greenwood-cfb",
    "name": "CFB Greenwood",
    "country": "Canada",
    "lat": 44.9844,
    "lon": -64.9169,
    "type": "air",
    "alliance": "NATO"
  },
  {
    "id": "halifax-naval",
    "name": "CFB Halifax",
    "country": "Canada",
    "lat": 44.6369,
    "lon": -63.5783,
    "type": "naval",
    "alliance": "NATO"
  },
  {
    "id": "kingston-cfb",
    "name": "CFB Kingston",
    "country": "Canada",
    "lat": 44.2311,
    "lon": -76.4819,
    "type": "army",
    "alliance": "NATO"
  },
  {
    "id": "petawawa-cfb",
    "name": "CFB Petawawa",
    "country": "Canada",
    "lat": 45.9519,
    "lon": -77.3208,
    "type": "army",
    "alliance": "NATO"
  },
  {
    "id": "trenton-cfb",
    "name": "CFB Trenton",
    "country": "Canada",
    "lat": 44.1189,
    "lon": -77.5281,
    "type": "air",
    "alliance": "NATO"
  },
  {
    "id": "valcartier-cfb",
    "name": "CFB Valcartier",
    "country": "Canada",
    "lat": 46.9058,
    "lon": -71.4997,
    "type": "army",
    "alliance": "NATO"
  },
  {
    "id": "wainwright-cfb",
    "name": "CFB Wainwright",
    "country": "Canada",
    "lat": 52.8281,
    "lon": -110.8569,
    "type": "army",
    "alliance": "NATO"
  },
  {
    "id": "winnipeg-cfb",
    "name": "CFB Winnipeg",
    "country": "Canada",
    "lat": 49.9100,
    "lon": -97.2328,
    "type": "air",
    "alliance": "NATO"
  },
  {
    "id": "northwood-nato",
    "name": "NATO Maritime Command",
    "country": "United Kingdom",
    "lat": 51.6006,
    "lon": -1.2369,
    "type": "naval",
    "alliance": "NATO"
  },
  {
    "id": "marham-raf",
    "name": "RAF Marham",
    "country": "United Kingdom",
    "lat": 52.6483,
    "lon": 0.5508,
    "type": "air",
    "alliance": "NATO"
  },
  {
    "id": "waddington-raf",
    "name": "RAF Waddington",
    "country": "United Kingdom",
    "lat": 53.1661,
    "lon": -0.5239,
    "type": "air",
    "alliance": "NATO"
  },
  {
    "id": "lossiemouth-raf",
    "name": "RAF Lossiemouth",
    "country": "United Kingdom",
    "lat": 57.7050,
    "lon": -3.3392,
    "type": "air",
    "alliance": "NATO"
  },
  {
    "id": "coningsby-raf",
    "name": "RAF Coningsby",
    "country": "United Kingdom",
    "lat": 53.0930,
    "lon": -0.1661,
    "type": "air",
    "alliance": "NATO"
  },
  {
    "id": "brize-norton",
    "name": "RAF Brize Norton",
    "country": "United Kingdom",
    "lat": 51.7500,
    "lon": -1.5836,
    "type": "air",
    "alliance": "NATO"
  },
  {
    "id": "portsmouth-naval",
    "name": "HMNB Portsmouth",
    "country": "United Kingdom",
    "lat": 50.8030,
    "lon": -1.0886,
    "type": "naval",
    "alliance": "NATO"
  },
  {
    "id": "devonport-naval",
    "name": "HMNB Devonport",
    "country": "United Kingdom",
    "lat": 50.3856,
    "lon": -4.1794,
    "type": "naval",
    "alliance": "NATO"
  },
  {
    "id": "clyde-naval",
    "name": "HMNB Clyde",
    "country": "United Kingdom",
    "lat": 56.0094,
    "lon": -4.8261,
    "type": "naval",
    "alliance": "NATO"
  },
  {
    "id": "mount-pleasant",
    "name": "RAF Mount Pleasant",
    "country": "Falkland Islands",
    "lat": -51.8228,
    "lon": -58.4472,
    "type": "air",
    "alliance": "NATO"
  },
  {
    "id": "akrotiri-raf",
    "name": "RAF Akrotiri",
    "country": "Cyprus",
    "lat": 34.5904,
    "lon": 32.9879,
    "type": "air",
    "alliance": "NATO"
  },
  {
    "id": "gibraltar-naval",
    "name": "Naval Base Gibraltar",
    "country": "Gibraltar",
    "lat": 36.1408,
    "lon": -5.3622,
    "type": "naval",
    "alliance": "NATO"
  },
  {
    "id": "ascension-raf",
    "name": "RAF Ascension Island",
    "country": "Ascension Island",
    "lat": -7.9697,
    "lon": -14.3936,
    "type": "air",
    "alliance": "NATO"
  },
  {
    "id": "toulon-naval",
    "name": "Naval Base Toulon",
    "country": "France",
    "lat": 43.1028,
    "lon": 5.9358,
    "type": "naval",
    "alliance": "NATO"
  },
  {
    "id": "brest-naval",
    "name": "Naval Base Brest",
    "country": "France",
    "lat": 48.3833,
    "lon": -4.4964,
    "type": "naval",
    "alliance": "NATO"
  },
  {
    "id": "istres-ab",
    "name": "BA 125 Istres-Le Tubé",
    "country": "France",
    "lat": 43.5228,
    "lon": 4.9236,
    "type": "air",
    "alliance": "NATO"
  },
  {
    "id": "mont-de-marsan",
    "name": "BA 118 Mont-de-Marsan",
    "country": "France",
    "lat": 43.9117,
    "lon": -0.5069,
    "type": "air",
    "alliance": "NATO"
  },
  {
    "id": "evreux-ab",
    "name": "BA 105 Évreux-Fauville",
    "country": "France",
    "lat": 49.0286,
    "lon": 1.2186,
    "type": "air",
    "alliance": "NATO"
  },
  {
    "id": "djibouti-france",
    "name": "Base Aérienne 188",
    "country": "Djibouti",
    "lat": 11.5472,
    "lon": 43.1597,
    "type": "air",
    "alliance": "NATO"
  },
  {
    "id": "dakar-senegal",
    "name": "Air Base 160 Dakar",
    "country": "Senegal",
    "lat": 14.7447,
    "lon": -17.4900,
    "type": "air",
    "alliance": "NATO"
  },
  {
    "id": "libreville-gabon",
    "name": "French Forces Gabon",
    "country": "Gabon",
    "lat": 0.4572,
    "lon": 9.4128,
    "type": "air",
    "alliance": "NATO"
  },
  {
    "id": "reunion-france",
    "name": "FAZSOI Reunion",
    "country": "Reunion",
    "lat": -20.8905,
    "lon": 55.5108,
    "type": "air",
    "alliance": "NATO"
  },
  {
    "id": "ncaledo-france",
    "name": "FANC Nouméa",
    "country": "New Caledonia",
    "lat": -22.2544,
    "lon": 166.4728,
    "type": "naval",
    "alliance": "NATO"
  },
  {
    "id": "polynes-france",
    "name": "FAP Tahiti",
    "country": "French Polynesia",
    "lat": -17.5539,
    "lon": -149.6117,
    "type": "naval",
    "alliance": "NATO"
  },
  {
    "id": "decimomannu",
    "name": "Decimomannu Air Base",
    "country": "Italy",
    "lat": 39.3542,
    "lon": 8.9725,
    "type": "air",
    "alliance": "NATO"
  },
  {
    "id": "gioia-del-colle",
    "name": "Gioia del Colle Air Base",
    "country": "Italy",
    "lat": 40.7675,
    "lon": 16.9333,
    "type": "air",
    "alliance": "NATO"
  },
  {
    "id": "amendola-ab",
    "name": "Amendola Air Base",
    "country": "Italy",
    "lat": 41.5408,
    "lon": 15.7181,
    "type": "air",
    "alliance": "NATO"
  },
  {
    "id": "taranto-naval",
    "name": "Naval Base Taranto",
    "country": "Italy",
    "lat": 40.4714,
    "lon": 17.2403,
    "type": "naval",
    "alliance": "NATO"
  },
  {
    "id": "augusta-naval",
    "name": "Naval Base Augusta",
    "country": "Italy",
    "lat": 37.2136,
    "lon": 15.2217,
    "type": "naval",
    "alliance": "NATO"
  },
  {
    "id": "laspeczia-naval",
    "name": "Naval Base La Spezia",
    "country": "Italy",
    "lat": 44.1061,
    "lon": 9.8233,
    "type": "naval",
    "alliance": "NATO"
  },
  {
    "id": "rota-spain-naval",
    "name": "Base Naval de Rota",
    "country": "Spain",
    "lat": 36.6406,
    "lon": -6.3514,
    "type": "naval",
    "alliance": "NATO"
  },
  {
    "id": "moron-ab",
    "name": "Morón Air Base",
    "country": "Spain",
    "lat": 37.1747,
    "lon": -5.6150,
    "type": "air",
    "alliance": "NATO"
  },
  {
    "id": "zaragoza-ab",
    "name": "Zaragoza Air Base",
    "country": "Spain",
    "lat": 41.6661,
    "lon": -1.0414,
    "type": "air",
    "alliance": "NATO"
  },
  {
    "id": "cartagena-naval",
    "name": "Naval Base Cartagena",
    "country": "Spain",
    "lat": 37.6006,
    "lon": -0.9844,
    "type": "naval",
    "alliance": "NATO"
  },
  {
    "id": "ferrol-naval",
    "name": "Naval Base Ferrol",
    "country": "Spain",
    "lat": 43.4831,
    "lon": -8.2375,
    "type": "naval",
    "alliance": "NATO"
  },
  {
    "id": "amari-ab",
    "name": "Ämari Air Base",
    "country": "Estonia",
    "lat": 59.2603,
    "lon": 24.2086,
    "type": "air",
    "alliance": "NATO"
  },
  {
    "id": "lielvarde-ab",
    "name": "Lielvārde Air Base",
    "country": "Latvia",
    "lat": 56.7817,
    "lon": 25.0483,
    "type": "air",
    "alliance": "NATO"
  },
  {
    "id": "siauliai-ab",
    "name": "Šiauliai Air Base",
    "country": "Lithuania",
    "lat": 55.8939,
    "lon": 23.3950,
    "type": "air",
    "alliance": "NATO"
  },
  {
    "id": "lask-ab",
    "name": "Łask Air Base",
    "country": "Poland",
    "lat": 51.5517,
    "lon": 19.1794,
    "type": "air",
    "alliance": "NATO"
  },
  {
    "id": "powidz-ab",
    "name": "Powidz Air Base",
    "country": "Poland",
    "lat": 52.3794,
    "lon": 17.8525,
    "type": "air",
    "alliance": "NATO"
  },
  {
    "id": "redzikowo-base",
    "name": "Redzikowo Missile Defense",
    "country": "Poland",
    "lat": 54.8450,
    "lon": 17.1114,
    "type": "air",
    "alliance": "NATO"
  },
  {
    "id": "miroslaw-ab",
    "name": "33rd Transport Air Base",
    "country": "Poland",
    "lat": 50.1153,
    "lon": 21.9792,
    "type": "air",
    "alliance": "NATO"
  },
  {
    "id": "caslav-ab",
    "name": "Čáslav Air Base",
    "country": "Czech Republic",
    "lat": 49.9394,
    "lon": 15.3817,
    "type": "air",
    "alliance": "NATO"
  },
  {
    "id": "malacky-ab",
    "name": "Malacky-Kuchyňa Air Base",
    "country": "Slovakia",
    "lat": 48.4042,
    "lon": 17.1864,
    "type": "air",
    "alliance": "NATO"
  },
  {
    "id": "kecskemét-ab",
    "name": "Kecskemét Air Base",
    "country": "Hungary",
    "lat": 46.9175,
    "lon": 19.7486,
    "type": "air",
    "alliance": "NATO"
  },
  {
    "id": "papa-ab",
    "name": "Pápa Air Base",
    "country": "Hungary",
    "lat": 47.3636,
    "lon": 17.5008,
    "type": "air",
    "alliance": "NATO"
  },
  {
    "id": "kogalniceanu",
    "name": "Mihail Kogălniceanu Air Base",
    "country": "Romania",
    "lat": 44.3628,
    "lon": 28.4883,
    "type": "air",
    "alliance": "NATO"
  },
  {
    "id": "campia-turzii",
    "name": "Câmpia Turzii Air Base",
    "country": "Romania",
    "lat": 46.5028,
    "lon": 23.8861,
    "type": "air",
    "alliance": "NATO"
  },
  {
    "id": "constanta-naval",
    "name": "Naval Base Constanța",
    "country": "Romania",
    "lat": 44.1597,
    "lon": 28.6561,
    "type": "naval",
    "alliance": "NATO"
  },
  {
    "id": "graf-ignatievo",
    "name": "Graf Ignatievo Air Base",
    "country": "Bulgaria",
    "lat": 42.2908,
    "lon": 24.7139,
    "type": "air",
    "alliance": "NATO"
  },
  {
    "id": "bezmer-ab",
    "name": "Bezmer Air Base",
    "country": "Bulgaria",
    "lat": 42.1731,
    "lon": 25.6294,
    "type": "air",
    "alliance": "NATO"
  },
  {
    "id": "oslo-naval",
    "name": "Haakonsvern Naval Base",
    "country": "Norway",
    "lat": 60.2833,
    "lon": 5.2167,
    "type": "naval",
    "alliance": "NATO"
  },
  {
    "id": "bardufoss-ab",
    "name": "Bardufoss Air Station",
    "country": "Norway",
    "lat": 69.0556,
    "lon": 18.5400,
    "type": "air",
    "alliance": "NATO"
  },
  {
    "id": "evenes-ab",
    "name": "Evenes Air Station",
    "country": "Norway",
    "lat": 68.4911,
    "lon": 16.6781,
    "type": "air",
    "alliance": "NATO"
  },
  {
    "id": "orland-ab",
    "name": "Ørland Main Air Station",
    "country": "Norway",
    "lat": 63.6989,
    "lon": 9.6061,
    "type": "air",
    "alliance": "NATO"
  },
  {
    "id": "keflavik-nas",
    "name": "Keflavík Air Base",
    "country": "Iceland",
    "lat": 63.9850,
    "lon": -22.6056,
    "type": "air",
    "alliance": "NATO"
  },
  {
    "id": "lulealv-ab",
    "name": "Luleå Air Base",
    "country": "Sweden",
    "lat": 65.5436,
    "lon": 22.1219,
    "type": "air",
    "alliance": "NATO"
  },
  {
    "id": "ronneby-ab",
    "name": "Ronneby Air Base",
    "country": "Sweden",
    "lat": 56.2667,
    "lon": 15.2650,
    "type": "air",
    "alliance": "NATO"
  },
  {
    "id": "karlsborg-ab",
    "name": "Karlsborg Air Base",
    "country": "Sweden",
    "lat": 58.5181,
    "lon": 14.5069,
    "type": "air",
    "alliance": "NATO"
  },
  {
    "id": "gotland-ab",
    "name": "Visby Air Base",
    "country": "Sweden",
    "lat": 57.6628,
    "lon": 18.3464,
    "type": "air",
    "alliance": "NATO"
  },
  {
    "id": "pirkkala-ab",
    "name": "Pirkkala Air Base",
    "country": "Finland",
    "lat": 61.4144,
    "lon": 23.6286,
    "type": "air",
    "alliance": "NATO"
  },
  {
    "id": "rovaniemi-ab",
    "name": "Rovaniemi Air Base",
    "country": "Finland",
    "lat": 66.5647,
    "lon": 25.8303,
    "type": "air",
    "alliance": "NATO"
  },
  {
    "id": "ankara-ab",
    "name": "Ankara Etimesgut Air Base",
    "country": "Turkey",
    "lat": 39.9486,
    "lon": 32.6856,
    "type": "air",
    "alliance": "NATO"
  },
  {
    "id": "konya-ab",
    "name": "Konya Air Base",
    "country": "Turkey",
    "lat": 37.9789,
    "lon": 32.5619,
    "type": "air",
    "alliance": "NATO"
  },
  {
    "id": "diyarbakir-ab",
    "name": "Diyarbakır Air Base",
    "country": "Turkey",
    "lat": 37.8939,
    "lon": 40.2011,
    "type": "air",
    "alliance": "NATO"
  },
  {
    "id": "malatya-ab",
    "name": "Malatya Erhaç Air Base",
    "country": "Turkey",
    "lat": 38.4358,
    "lon": 38.0908,
    "type": "air",
    "alliance": "NATO"
  },
  {
    "id": "izmir-naval",
    "name": "Naval Base Aksaz",
    "country": "Turkey",
    "lat": 36.8169,
    "lon": 27.9353,
    "type": "naval",
    "alliance": "NATO"
  },
  {
    "id": "golcuk-naval",
    "name": "Gölcük Naval Base",
    "country": "Turkey",
    "lat": 40.7064,
    "lon": 29.8167,
    "type": "naval",
    "alliance": "NATO"
  }
]
